[
  {
    "nombre": "El Canelito",
    "lat": -39.84273497286754,
    "lng": -73.21693456748824
  },
  {
    "nombre": "Cuncunita",
    "lat": -39.80377064546047,
    "lng": -73.2089080336706
  },
  {
    "nombre": "Esperanza",
    "lat": -39.83495914304212,
    "lng": -73.25620091489277
  },
  {
    "nombre": "Papelucho",
    "lat": -39.81424785013783,
    "lng": -73.22537407541412
  },
  {
    "nombre": "Ensueño",
    "lat": -39.84414187955394,
    "lng": -73.22834071255748
  },
  {
    "nombre": "Los Pinguinitos",
    "lat": -39.80950032451909,
    "lng": -73.25326488570953
  },
  {
    "nombre": "Amanecer del Sol",
    "lat": -39.85028841951018,
    "lng": -73.22424813394893
  },
  {
    "nombre": "Más Amigos",
    "lat": -39.807632649126056,
    "lng": -73.22226378605754
  },
  {
    "nombre": "El Principito",
    "lat": -39.848771638045235,
    "lng": -73.2477758706834
  },
  {
    "nombre": "Luz de los Ríos",
    "lat": -39.806084790523975,
    "lng": -73.22033077826207
  },
  {
    "nombre": "Pequeña Misión de Jesús",
    "lat": -39.853275602464464,
    "lng": -73.23143306142862
  },
  {
    "nombre": "Dulce Bebé",
    "lat": -39.844201811271745,
    "lng": -73.21486129465939
  },
  {
    "nombre": "Rinconcito Feliz",
    "lat": -39.8521791164857,
    "lng": -73.23063825420769
  },
  {
    "nombre": "Aneley",
    "lat": -39.84482253485546,
    "lng": -73.21738114843103
  },
  {
    "nombre": "Estrellita de los Ríos",
    "lat": -39.84933717412028,
    "lng": -73.2538765276511
  },
  {
    "nombre": "Sueños de Colores",
    "lat": -39.83614405252419,
    "lng": -73.2073507494457
  },
  {
    "nombre": "Nube de Algodón",
    "lat": -39.8478677567265,
    "lng": -73.24595993308479
  },
  {
    "nombre": "Sonrisa de Colores",
    "lat": -39.82835055956444,
    "lng": -73.24760519075915
  }
]