{"type": "FeatureCollection", "features": [{"type": "Feature", "geometry": {"type": "LineString", "coordinates": [[-73.392828, -39.8638829], [-73.3933523, -39.8638263], [-73.3950809, -39.865183], [-73.3997386, -39.8710626], [-73.3989393, -39.8728467], [-73.3951628, -39.8740865], [-73.3867836, -39.8757806], [-73.3819368, -39.8704471], [-73.3807091, -39.8700336], [-73.379032, -39.8694651], [-73.3764147, -39.8681524], [-73.3722057, -39.8657471], [-73.3609995, -39.8628237], [-73.354125, -39.8616296], [-73.3497637, -39.8609707], [-73.3472022, -39.8608246], [-73.3279412, -39.8549339], [-73.3230516, -39.8520429], [-73.3185775, -39.8476234], [-73.3152902, -39.8463633], [-73.3109521, -39.8450456], [-73.2993544, -39.8433993], [-73.290342, -39.8435114], [-73.2862061, -39.8415982], [-73.2779583, -39.8376522], [-73.270322, -39.8331416], [-73.2596801, -39.8143968], [-73.2572194, -39.810205], [-73.2467123, -39.8130519], [-73.2468688, -39.8134892], [-73.2471238, -39.8150514], [-73.2446909, -39.8154423], [-73.2426765, -39.8158296], [-73.2402068, -39.8162742], [-73.237304, -39.8169195], [-73.2330852, -39.8179355], [-73.2313039, -39.8190188], [-73.2291233, -39.8226218], [-73.2271492, -39.8244449], [-73.2248425, -39.826064], [-73.2221925, -39.8282352], [-73.2205712, -39.8295452], [-73.2182604, -39.8314814], [-73.216812, -39.8325525], [-73.2162185, -39.8339456], [-73.2202774, -39.8363958], [-73.2222676, -39.8370631], [-73.2237911, -39.8374503], [-73.2262533, -39.8376851], [-73.2276856, -39.837821], [-73.2297182, -39.8389321], [-73.2296597, -39.8395181], [-73.2289409, -39.8416682], [-73.2285644, -39.843844], [-73.2313764, -39.8446873], [-73.2316902, -39.8495163], [-73.2366335, -39.8499343], [-73.2383796, -39.8496337], [-73.2459488, -39.8501716], [-73.2471695, -39.8500326], [-73.2491379, -39.8489747], [-73.2504122, -39.8500372], [-73.2508186, -39.8505229], [-73.2400143, -39.8659159]]}, "properties": {"route_id": "304", "tipo": "troncal"}}, {"type": "Feature", "geometry": {"type": "Point", "coordinates": [-73.392828, -39.8638829]}, "properties": {"stop_name": "Tornagaleones / Del Castillo", "tipo": "terminal"}}, {"type": "Feature", "geometry": {"type": "Point", "coordinates": [-73.3933523, -39.8638263]}, "properties": {"stop_name": "Ruta T-350/P1", "tipo": "paradero"}}, {"type": "Feature", "geometry": {"type": "Point", "coordinates": [-73.3950809, -39.865183]}, "properties": {"stop_name": "Ruta T-350/P3", "tipo": "paradero"}}, {"type": "Feature", "geometry": {"type": "Point", "coordinates": [-73.3997386, -39.8710626]}, "properties": {"stop_name": "Ruta T-350/P5", "tipo": "paradero"}}, {"type": "Feature", "geometry": {"type": "Point", "coordinates": [-73.3989393, -39.8728467]}, "properties": {"stop_name": "Ruta T-350/P7", "tipo": "paradero"}}, {"type": "Feature", "geometry": {"type": "Point", "coordinates": [-73.3951628, -39.8740865]}, "properties": {"stop_name": "Ruta T-350/P9", "tipo": "paradero"}}, {"type": "Feature", "geometry": {"type": "Point", "coordinates": [-73.3867836, -39.8757806]}, "properties": {"stop_name": "Ruta T-350/P11", "tipo": "paradero"}}, {"type": "Feature", "geometry": {"type": "Point", "coordinates": [-73.3819368, -39.8704471]}, "properties": {"stop_name": "Ruta T-350/P13", "tipo": "paradero"}}, {"type": "Feature", "geometry": {"type": "Point", "coordinates": [-73.3807091, -39.8700336]}, "properties": {"stop_name": "Ruta T-350 /P15", "tipo": "paradero"}}, {"type": "Feature", "geometry": {"type": "Point", "coordinates": [-73.379032, -39.8694651]}, "properties": {"stop_name": "Ruta T-350/P15", "tipo": "paradero"}}, {"type": "Feature", "geometry": {"type": "Point", "coordinates": [-73.3764147, -39.8681524]}, "properties": {"stop_name": "Ruta T-350/P20", "tipo": "paradero"}}, {"type": "Feature", "geometry": {"type": "Point", "coordinates": [-73.3722057, -39.8657471]}, "properties": {"stop_name": "Ruta T-350/P17", "tipo": "paradero"}}, {"type": "Feature", "geometry": {"type": "Point", "coordinates": [-73.3609995, -39.8628237]}, "properties": {"stop_name": "Ruta T-350/P19", "tipo": "paradero"}}, {"type": "Feature", "geometry": {"type": "Point", "coordinates": [-73.354125, -39.8616296]}, "properties": {"stop_name": "Ruta T-350/P21", "tipo": "paradero"}}, {"type": "Feature", "geometry": {"type": "Point", "coordinates": [-73.3497637, -39.8609707]}, "properties": {"stop_name": "Ruta T-350/P23", "tipo": "paradero"}}, {"type": "Feature", "geometry": {"type": "Point", "coordinates": [-73.3472022, -39.8608246]}, "properties": {"stop_name": "Ruta T-350/P25", "tipo": "paradero"}}, {"type": "Feature", "geometry": {"type": "Point", "coordinates": [-73.3279412, -39.8549339]}, "properties": {"stop_name": "Ruta T-350/P27", "tipo": "paradero"}}, {"type": "Feature", "geometry": {"type": "Point", "coordinates": [-73.3230516, -39.8520429]}, "properties": {"stop_name": "Ruta T350 /P29", "tipo": "paradero"}}, {"type": "Feature", "geometry": {"type": "Point", "coordinates": [-73.3185775, -39.8476234]}, "properties": {"stop_name": "Ruta T350/P29", "tipo": "paradero"}}, {"type": "Feature", "geometry": {"type": "Point", "coordinates": [-73.3152902, -39.8463633]}, "properties": {"stop_name": "Ruta T-350/P31", "tipo": "paradero"}}, {"type": "Feature", "geometry": {"type": "Point", "coordinates": [-73.3109521, -39.8450456]}, "properties": {"stop_name": "Ruta T350/P33", "tipo": "paradero"}}, {"type": "Feature", "geometry": {"type": "Point", "coordinates": [-73.2993544, -39.8433993]}, "properties": {"stop_name": "Ruta T350/P35", "tipo": "paradero"}}, {"type": "Feature", "geometry": {"type": "Point", "coordinates": [-73.290342, -39.8435114]}, "properties": {"stop_name": "Ruta T-350 /P37", "tipo": "paradero"}}, {"type": "Feature", "geometry": {"type": "Point", "coordinates": [-73.2862061, -39.8415982]}, "properties": {"stop_name": "Ruta T350/P39", "tipo": "paradero"}}, {"type": "Feature", "geometry": {"type": "Point", "coordinates": [-73.2779583, -39.8376522]}, "properties": {"stop_name": "Ruta T-350/P43", "tipo": "paradero"}}, {"type": "Feature", "geometry": {"type": "Point", "coordinates": [-73.270322, -39.8331416]}, "properties": {"stop_name": "Ruta T-350/P45", "tipo": "paradero"}}, {"type": "Feature", "geometry": {"type": "Point", "coordinates": [-73.2596801, -39.8143968]}, "properties": {"stop_name": "Los Lingues / Los Boldos", "tipo": "paradero"}}, {"type": "Feature", "geometry": {"type": "Point", "coordinates": [-73.2572194, -39.810205]}, "properties": {"stop_name": "Av. Los Robles / Los Lingues", "tipo": "paradero"}}, {"type": "Feature", "geometry": {"type": "Point", "coordinates": [-73.2467123, -39.8130519]}, "properties": {"stop_name": "Independencia / Chacabuco", "tipo": "paradero"}}, {"type": "Feature", "geometry": {"type": "Point", "coordinates": [-73.2468688, -39.8134892]}, "properties": {"stop_name": "Independencia / Chacabuco", "tipo": "paradero"}}, {"type": "Feature", "geometry": {"type": "Point", "coordinates": [-73.2471238, -39.8150514]}, "properties": {"stop_name": "Arauco / O'Higgins", "tipo": "paradero"}}, {"type": "Feature", "geometry": {"type": "Point", "coordinates": [-73.2446909, -39.8154423]}, "properties": {"stop_name": "Arauco/Caupolican", "tipo": "paradero"}}, {"type": "Feature", "geometry": {"type": "Point", "coordinates": [-73.2426765, -39.8158296]}, "properties": {"stop_name": "Arauco / Beauchef", "tipo": "paradero"}}, {"type": "Feature", "geometry": {"type": "Point", "coordinates": [-73.2402068, -39.8162742]}, "properties": {"stop_name": "Arauco / Pedro de Valdivia", "tipo": "paradero"}}, {"type": "Feature", "geometry": {"type": "Point", "coordinates": [-73.237304, -39.8169195]}, "properties": {"stop_name": "Arauco /Anfion Muñoz", "tipo": "paradero"}}, {"type": "Feature", "geometry": {"type": "Point", "coordinates": [-73.2330852, -39.8179355]}, "properties": {"stop_name": "Av. Ramon Picarte / Condell", "tipo": "paradero"}}, {"type": "Feature", "geometry": {"type": "Point", "coordinates": [-73.2313039, -39.8190188]}, "properties": {"stop_name": "Av. Ramón Picarte / Av. Pedro Montt", "tipo": "paradero"}}, {"type": "Feature", "geometry": {"type": "Point", "coordinates": [-73.2291233, -39.8226218]}, "properties": {"stop_name": "Av. Ramon Picarte / Baquedano", "tipo": "paradero"}}, {"type": "Feature", "geometry": {"type": "Point", "coordinates": [-73.2271492, -39.8244449]}, "properties": {"stop_name": "Av. Ramón Picarte / Gálvez", "tipo": "paradero"}}, {"type": "Feature", "geometry": {"type": "Point", "coordinates": [-73.2248425, -39.826064]}, "properties": {"stop_name": "Av. Ramón Picarte / San Martín", "tipo": "paradero"}}, {"type": "Feature", "geometry": {"type": "Point", "coordinates": [-73.2221925, -39.8282352]}, "properties": {"stop_name": "Av. Ramon Picarte / Av. Simpson", "tipo": "paradero"}}, {"type": "Feature", "geometry": {"type": "Point", "coordinates": [-73.2205712, -39.8295452]}, "properties": {"stop_name": "Ramon Picarte/M Caceres", "tipo": "paradero"}}, {"type": "Feature", "geometry": {"type": "Point", "coordinates": [-73.2182604, -39.8314814]}, "properties": {"stop_name": "Av. Ramón Picarte / Carlos Hilker", "tipo": "paradero"}}, {"type": "Feature", "geometry": {"type": "Point", "coordinates": [-73.216812, -39.8325525]}, "properties": {"stop_name": "Av. Ramón Picarte / Nolasco Cárdenas", "tipo": "paradero"}}, {"type": "Feature", "geometry": {"type": "Point", "coordinates": [-73.2162185, -39.8339456]}, "properties": {"stop_name": "Av. Francia / Errazuriz", "tipo": "paradero"}}, {"type": "Feature", "geometry": {"type": "Point", "coordinates": [-73.2202774, -39.8363958]}, "properties": {"stop_name": "Francia/San Luis", "tipo": "paradero"}}, {"type": "Feature", "geometry": {"type": "Point", "coordinates": [-73.2222676, -39.8370631]}, "properties": {"stop_name": "Av. Francia / San Luis", "tipo": "paradero"}}, {"type": "Feature", "geometry": {"type": "Point", "coordinates": [-73.2237911, -39.8374503]}, "properties": {"stop_name": "Av. Francia / Calle Dos", "tipo": "paradero"}}, {"type": "Feature", "geometry": {"type": "Point", "coordinates": [-73.2262533, -39.8376851]}, "properties": {"stop_name": "Av. Francia / Carlos Krahmer Ritcher", "tipo": "paradero"}}, {"type": "Feature", "geometry": {"type": "Point", "coordinates": [-73.2276856, -39.837821]}, "properties": {"stop_name": "Av. Francia / San Martín", "tipo": "paradero"}}, {"type": "Feature", "geometry": {"type": "Point", "coordinates": [-73.2297182, -39.8389321]}, "properties": {"stop_name": "General A. Montecino Caro / Luis Tirado", "tipo": "paradero"}}, {"type": "Feature", "geometry": {"type": "Point", "coordinates": [-73.2296597, -39.8395181]}, "properties": {"stop_name": "General A. Montecino Caro / Pje. 1A", "tipo": "paradero"}}, {"type": "Feature", "geometry": {"type": "Point", "coordinates": [-73.2289409, -39.8416682]}, "properties": {"stop_name": "General A. Montecino Caro / Pje. 1-e", "tipo": "paradero"}}, {"type": "Feature", "geometry": {"type": "Point", "coordinates": [-73.2285644, -39.843844]}, "properties": {"stop_name": "Claudio Barrientos / Gral. Montecinos", "tipo": "paradero"}}, {"type": "Feature", "geometry": {"type": "Point", "coordinates": [-73.2313764, -39.8446873]}, "properties": {"stop_name": "Av. Circunvalación Sur / Hualaihue", "tipo": "paradero"}}, {"type": "Feature", "geometry": {"type": "Point", "coordinates": [-73.2316902, -39.8495163]}, "properties": {"stop_name": "Av. Pedro Montt / Orozimbo Barbozo", "tipo": "paradero"}}, {"type": "Feature", "geometry": {"type": "Point", "coordinates": [-73.2366335, -39.8499343]}, "properties": {"stop_name": "Intendente Luis Damann Asenjo / Santiago Dervis Ojeda", "tipo": "paradero"}}, {"type": "Feature", "geometry": {"type": "Point", "coordinates": [-73.2383796, -39.8496337]}, "properties": {"stop_name": "Intendente Luis Damann Asenjo / Salvador Sanfuentes", "tipo": "paradero"}}, {"type": "Feature", "geometry": {"type": "Point", "coordinates": [-73.2459488, -39.8501716]}, "properties": {"stop_name": "Intendente Luis Damann Asenjo / Las Avutardas", "tipo": "paradero"}}, {"type": "Feature", "geometry": {"type": "Point", "coordinates": [-73.2471695, -39.8500326]}, "properties": {"stop_name": "Ingeniero Federico Wiese / Los Ñandúes", "tipo": "paradero"}}, {"type": "Feature", "geometry": {"type": "Point", "coordinates": [-73.2491379, -39.8489747]}, "properties": {"stop_name": "Ingeniero Raúl Saez / Ing. Federico Wieses", "tipo": "paradero"}}, {"type": "Feature", "geometry": {"type": "Point", "coordinates": [-73.2504122, -39.8500372]}, "properties": {"stop_name": "Ingeniero Raúl Sáez Sáez / Av. Circunvalación", "tipo": "paradero"}}, {"type": "Feature", "geometry": {"type": "Point", "coordinates": [-73.2508186, -39.8505229]}, "properties": {"stop_name": "Camino A Angachilla/Ing Raul Saez", "tipo": "paradero"}}, {"type": "Feature", "geometry": {"type": "Point", "coordinates": [-73.2400143, -39.8659159]}, "properties": {"stop_name": "T-424 / Terminal Línea 20", "tipo": "terminal"}}]}