{"type": "FeatureCollection", "features": [{"type": "Feature", "geometry": {"type": "LineString", "coordinates": [[-73.2169544, -39.7737041], [-73.2168619, -39.7736772], [-73.2020144, -39.7748832], [-73.1949258, -39.7743756], [-73.1934231, -39.7749715], [-73.1929993, -39.7791479], [-73.2118552, -39.7906903], [-73.213942, -39.7967575], [-73.2135206, -39.8033376], [-73.2157091, -39.8071519], [-73.2169935, -39.8085599], [-73.220551, -39.8120305], [-73.2229328, -39.813893], [-73.2258088, -39.8159907], [-73.2309717, -39.8188939], [-73.2324895, -39.8180031], [-73.2342061, -39.8170163], [-73.2370249, -39.8156853], [-73.2399916, -39.814816], [-73.2419741, -39.8134502], [-73.2451093, -39.8119275], [-73.2514442, -39.806872], [-73.2518481, -39.8068649]]}, "properties": {"route_id": "306", "tipo": "troncal"}}, {"type": "Feature", "geometry": {"type": "Point", "coordinates": [-73.2169544, -39.7737041]}, "properties": {"stop_name": "Camino El Arenal / Pasaje Lautaro", "tipo": "terminal"}}, {"type": "Feature", "geometry": {"type": "Point", "coordinates": [-73.2168619, -39.7736772]}, "properties": {"stop_name": "Camino El Arenal / P1", "tipo": "paradero"}}, {"type": "Feature", "geometry": {"type": "Point", "coordinates": [-73.2020144, -39.7748832]}, "properties": {"stop_name": "Camino El Arenal / P3", "tipo": "paradero"}}, {"type": "Feature", "geometry": {"type": "Point", "coordinates": [-73.1949258, -39.7743756]}, "properties": {"stop_name": "Camino El Arenal / P5", "tipo": "paradero"}}, {"type": "Feature", "geometry": {"type": "Point", "coordinates": [-73.1934231, -39.7749715]}, "properties": {"stop_name": "Camino El Arenal / P7", "tipo": "paradero"}}, {"type": "Feature", "geometry": {"type": "Point", "coordinates": [-73.1929993, -39.7791479]}, "properties": {"stop_name": "Ruta T-312 / Ruta T-302", "tipo": "paradero"}}, {"type": "Feature", "geometry": {"type": "Point", "coordinates": [-73.2118552, -39.7906903]}, "properties": {"stop_name": "Pedro Aguirre Cerda/Los Maitenes", "tipo": "paradero"}}, {"type": "Feature", "geometry": {"type": "Point", "coordinates": [-73.213942, -39.7967575]}, "properties": {"stop_name": "Pedro Aguirre Cerda / Eckhart", "tipo": "paradero"}}, {"type": "Feature", "geometry": {"type": "Point", "coordinates": [-73.2135206, -39.8033376]}, "properties": {"stop_name": "Pedro Aguirre Cerda / Dalias", "tipo": "paradero"}}, {"type": "Feature", "geometry": {"type": "Point", "coordinates": [-73.2157091, -39.8071519]}, "properties": {"stop_name": "Pedro Aguirre Cerda / Bombero Muñoz", "tipo": "paradero"}}, {"type": "Feature", "geometry": {"type": "Point", "coordinates": [-73.2169935, -39.8085599]}, "properties": {"stop_name": "Pedro Aguirre Cerda / Pje. Doce", "tipo": "paradero"}}, {"type": "Feature", "geometry": {"type": "Point", "coordinates": [-73.220551, -39.8120305]}, "properties": {"stop_name": "Pedro Aguirre Cerda / La Unión", "tipo": "paradero"}}, {"type": "Feature", "geometry": {"type": "Point", "coordinates": [-73.2229328, -39.813893]}, "properties": {"stop_name": "Pedro Aguirre Cerda / Ricardo Rodas", "tipo": "paradero"}}, {"type": "Feature", "geometry": {"type": "Point", "coordinates": [-73.2258088, -39.8159907]}, "properties": {"stop_name": "Pedro Aguirre Cerda/Av España", "tipo": "paradero"}}, {"type": "Feature", "geometry": {"type": "Point", "coordinates": [-73.2309717, -39.8188939]}, "properties": {"stop_name": "Av. Ramon Picarte / Av. Ramon Picarte", "tipo": "paradero"}}, {"type": "Feature", "geometry": {"type": "Point", "coordinates": [-73.2324895, -39.8180031]}, "properties": {"stop_name": "Av. Picarte / Condell", "tipo": "paradero"}}, {"type": "Feature", "geometry": {"type": "Point", "coordinates": [-73.2342061, -39.8170163]}, "properties": {"stop_name": "Av. Ramon Picarte / Beauchef", "tipo": "paradero"}}, {"type": "Feature", "geometry": {"type": "Point", "coordinates": [-73.2370249, -39.8156853]}, "properties": {"stop_name": "Av. Ramon Picarte / Pedro de Valdivia", "tipo": "paradero"}}, {"type": "Feature", "geometry": {"type": "Point", "coordinates": [-73.2399916, -39.814816]}, "properties": {"stop_name": "Av. Ramón Picarte / García Reyes", "tipo": "paradero"}}, {"type": "Feature", "geometry": {"type": "Point", "coordinates": [-73.2419741, -39.8134502]}, "properties": {"stop_name": "Chacabuco / Walter Schmidt", "tipo": "paradero"}}, {"type": "Feature", "geometry": {"type": "Point", "coordinates": [-73.2451093, -39.8119275]}, "properties": {"stop_name": "Carampangue / Camilo Henríquez", "tipo": "paradero"}}, {"type": "Feature", "geometry": {"type": "Point", "coordinates": [-73.2514442, -39.806872]}, "properties": {"stop_name": "Los Laureles / Campus Isla Teja", "tipo": "paradero"}}, {"type": "Feature", "geometry": {"type": "Point", "coordinates": [-73.2518481, -39.8068649]}, "properties": {"stop_name": "Av. Presidente Carlos Ibañez del Campo / Av. Rector Eduardo Morales Miranda", "tipo": "terminal"}}]}