{"type": "FeatureCollection", "features": [{"type": "Feature", "geometry": {"type": "LineString", "coordinates": [[-73.1762683, -39.8784639], [-73.1841055, -39.8725928], [-73.1858003, -39.870725], [-73.190242, -39.8630419], [-73.1914222, -39.8585371], [-73.1907999, -39.8561158], [-73.1970226, -39.8483899], [-73.1985139, -39.8469896], [-73.1996297, -39.8461412], [-73.2033695, -39.8432434], [-73.2056111, -39.8414087], [-73.2041627, -39.8404819], [-73.2019391, -39.8389023], [-73.2028058, -39.8378149], [-73.2044502, -39.8363458], [-73.2097685, -39.8379487], [-73.2115033, -39.83905], [-73.2159697, -39.8406797], [-73.2175898, -39.8411574], [-73.2170829, -39.843396], [-73.217504, -39.845581], [-73.2183837, -39.8465695], [-73.2190811, -39.8474303], [-73.2206663, -39.8490077], [-73.2221174, -39.8503997], [-73.2245316, -39.8522618], [-73.2256262, -39.8527488], [-73.2279421, -39.853376], [-73.2297214, -39.8519173], [-73.2315695, -39.8501217], [-73.2318597, -39.8452944], [-73.2315909, -39.8450003], [-73.2280393, -39.8439021], [-73.2284474, -39.8426979], [-73.2287585, -39.8416517], [-73.2317733, -39.8377222], [-73.2334309, -39.8376151], [-73.2366871, -39.8365441], [-73.238275, -39.8335535], [-73.2376483, -39.8318827], [-73.239071, -39.8302698], [-73.2369071, -39.8284411], [-73.2331412, -39.8261464], [-73.2278948, -39.8236127], [-73.2309717, -39.8188939], [-73.2324895, -39.8180031], [-73.2342061, -39.8170163], [-73.2359837, -39.8157701], [-73.2393506, -39.8130874], [-73.2433283, -39.8121582], [-73.2451093, -39.8119275], [-73.2514442, -39.806872], [-73.2517038, -39.8068599], [-73.2518123, -39.8068978]]}, "properties": {"route_id": "912", "tipo": "troncal"}}, {"type": "Feature", "geometry": {"type": "Point", "coordinates": [-73.1762683, -39.8784639]}, "properties": {"stop_name": "Calle Orlando Oyarzún / Camino Las Gaviotas", "tipo": "terminal"}}, {"type": "Feature", "geometry": {"type": "Point", "coordinates": [-73.1841055, -39.8725928]}, "properties": {"stop_name": "T-418 / Poste 42", "tipo": "paradero"}}, {"type": "Feature", "geometry": {"type": "Point", "coordinates": [-73.1858003, -39.870725]}, "properties": {"stop_name": "T-418 / Poste 30", "tipo": "paradero"}}, {"type": "Feature", "geometry": {"type": "Point", "coordinates": [-73.190242, -39.8630419]}, "properties": {"stop_name": "T-418/Poste 22", "tipo": "paradero"}}, {"type": "Feature", "geometry": {"type": "Point", "coordinates": [-73.1914222, -39.8585371]}, "properties": {"stop_name": "T-418/Poste  9", "tipo": "paradero"}}, {"type": "Feature", "geometry": {"type": "Point", "coordinates": [-73.1907999, -39.8561158]}, "properties": {"stop_name": "T-418 / Poste 4", "tipo": "paradero"}}, {"type": "Feature", "geometry": {"type": "Point", "coordinates": [-73.1970226, -39.8483899]}, "properties": {"stop_name": "Ruta 206 / El Retiro", "tipo": "paradero"}}, {"type": "Feature", "geometry": {"type": "Point", "coordinates": [-73.1985139, -39.8469896]}, "properties": {"stop_name": "Av. Ramon Picarte / Callejón Bhole", "tipo": "paradero"}}, {"type": "Feature", "geometry": {"type": "Point", "coordinates": [-73.1996297, -39.8461412]}, "properties": {"stop_name": "Av. Ramon Picarte / Callejón Bhole 2", "tipo": "paradero"}}, {"type": "Feature", "geometry": {"type": "Point", "coordinates": [-73.2033695, -39.8432434]}, "properties": {"stop_name": "Av. Ramón Picarte / Luis Toledo", "tipo": "paradero"}}, {"type": "Feature", "geometry": {"type": "Point", "coordinates": [-73.2056111, -39.8414087]}, "properties": {"stop_name": "Ignacio de La Carrera/Pje 4", "tipo": "paradero"}}, {"type": "Feature", "geometry": {"type": "Point", "coordinates": [-73.2041627, -39.8404819]}, "properties": {"stop_name": "Ignacio de La Carrera/Rio Cau Cau", "tipo": "paradero"}}, {"type": "Feature", "geometry": {"type": "Point", "coordinates": [-73.2019391, -39.8389023]}, "properties": {"stop_name": "Pasaje Once/Martinez de Roza", "tipo": "paradero"}}, {"type": "Feature", "geometry": {"type": "Point", "coordinates": [-73.2028058, -39.8378149]}, "properties": {"stop_name": "Martínez de Rozas / Pedro de Montoya", "tipo": "paradero"}}, {"type": "Feature", "geometry": {"type": "Point", "coordinates": [-73.2044502, -39.8363458]}, "properties": {"stop_name": "Martínez de Rozas / Monte Verde", "tipo": "paradero"}}, {"type": "Feature", "geometry": {"type": "Point", "coordinates": [-73.2097685, -39.8379487]}, "properties": {"stop_name": "Ruben Dario / Picarte", "tipo": "paradero"}}, {"type": "Feature", "geometry": {"type": "Point", "coordinates": [-73.2115033, -39.83905]}, "properties": {"stop_name": "Ruben Dario/Alonso Zurita", "tipo": "paradero"}}, {"type": "Feature", "geometry": {"type": "Point", "coordinates": [-73.2159697, -39.8406797]}, "properties": {"stop_name": "Rubén Darío / Jorge Inostroza", "tipo": "paradero"}}, {"type": "Feature", "geometry": {"type": "Point", "coordinates": [-73.2175898, -39.8411574]}, "properties": {"stop_name": "Rene Schneider/San Sebastian", "tipo": "paradero"}}, {"type": "Feature", "geometry": {"type": "Point", "coordinates": [-73.2170829, -39.843396]}, "properties": {"stop_name": "Rene Schneider/San Pedro", "tipo": "paradero"}}, {"type": "Feature", "geometry": {"type": "Point", "coordinates": [-73.217504, -39.845581]}, "properties": {"stop_name": "Rene Schneider / San Miguel", "tipo": "paradero"}}, {"type": "Feature", "geometry": {"type": "Point", "coordinates": [-73.2183837, -39.8465695]}, "properties": {"stop_name": "Rene Schneider/Santa Carolina", "tipo": "paradero"}}, {"type": "Feature", "geometry": {"type": "Point", "coordinates": [-73.2190811, -39.8474303]}, "properties": {"stop_name": "Rene Schneider/Santa Julia", "tipo": "paradero"}}, {"type": "Feature", "geometry": {"type": "Point", "coordinates": [-73.2206663, -39.8490077]}, "properties": {"stop_name": "Rene Schneider / Santa Rebeca", "tipo": "paradero"}}, {"type": "Feature", "geometry": {"type": "Point", "coordinates": [-73.2221174, -39.8503997]}, "properties": {"stop_name": "Av. Rene Schneider / San Pedro Cinco", "tipo": "paradero"}}, {"type": "Feature", "geometry": {"type": "Point", "coordinates": [-73.2245316, -39.8522618]}, "properties": {"stop_name": "Rene Schneider/Santa Flor", "tipo": "paradero"}}, {"type": "Feature", "geometry": {"type": "Point", "coordinates": [-73.2256262, -39.8527488]}, "properties": {"stop_name": "Rene Schneider", "tipo": "paradero"}}, {"type": "Feature", "geometry": {"type": "Point", "coordinates": [-73.2279421, -39.853376]}, "properties": {"stop_name": "Intendente Luis Damann / Alcalde José María Torres", "tipo": "paradero"}}, {"type": "Feature", "geometry": {"type": "Point", "coordinates": [-73.2297214, -39.8519173]}, "properties": {"stop_name": "Intendente Luis Damann Asenjo / Regidor Juan Osorio", "tipo": "paradero"}}, {"type": "Feature", "geometry": {"type": "Point", "coordinates": [-73.2315695, -39.8501217]}, "properties": {"stop_name": "Av. Pedro Montt / San Luis", "tipo": "paradero"}}, {"type": "Feature", "geometry": {"type": "Point", "coordinates": [-73.2318597, -39.8452944]}, "properties": {"stop_name": "Av. Pedro Montt / Av. Circunvalación Sur", "tipo": "paradero"}}, {"type": "Feature", "geometry": {"type": "Point", "coordinates": [-73.2315909, -39.8450003]}, "properties": {"stop_name": "Av. Circunvalación Sur  /Hualaihue", "tipo": "paradero"}}, {"type": "Feature", "geometry": {"type": "Point", "coordinates": [-73.2280393, -39.8439021]}, "properties": {"stop_name": "Arturo Godoy/Pje  1-F", "tipo": "paradero"}}, {"type": "Feature", "geometry": {"type": "Point", "coordinates": [-73.2284474, -39.8426979]}, "properties": {"stop_name": "General Alberto Montecino / Manuel Plaza", "tipo": "paradero"}}, {"type": "Feature", "geometry": {"type": "Point", "coordinates": [-73.2287585, -39.8416517]}, "properties": {"stop_name": "General A. Montecino Caro/ Pje. 4-d", "tipo": "paradero"}}, {"type": "Feature", "geometry": {"type": "Point", "coordinates": [-73.2317733, -39.8377222]}, "properties": {"stop_name": "Av. Francia / Isla Guacamayo", "tipo": "paradero"}}, {"type": "Feature", "geometry": {"type": "Point", "coordinates": [-73.2334309, -39.8376151]}, "properties": {"stop_name": "Av. Francia / Av. Pedro Montt", "tipo": "paradero"}}, {"type": "Feature", "geometry": {"type": "Point", "coordinates": [-73.2366871, -39.8365441]}, "properties": {"stop_name": "Av. Francia / Italia", "tipo": "paradero"}}, {"type": "Feature", "geometry": {"type": "Point", "coordinates": [-73.238275, -39.8335535]}, "properties": {"stop_name": "José María Muñoz Hermosilla / Av. Italia", "tipo": "paradero"}}, {"type": "Feature", "geometry": {"type": "Point", "coordinates": [-73.2376483, -39.8318827]}, "properties": {"stop_name": "Av. Simpson / Carlos Haverbeck", "tipo": "paradero"}}, {"type": "Feature", "geometry": {"type": "Point", "coordinates": [-73.239071, -39.8302698]}, "properties": {"stop_name": "Haverbeck / Bueras Norte", "tipo": "paradero"}}, {"type": "Feature", "geometry": {"type": "Point", "coordinates": [-73.2369071, -39.8284411]}, "properties": {"stop_name": "Bueras / Bulnes Sur", "tipo": "paradero"}}, {"type": "Feature", "geometry": {"type": "Point", "coordinates": [-73.2331412, -39.8261464]}, "properties": {"stop_name": "Santiago Bueras / Emilio Cock", "tipo": "paradero"}}, {"type": "Feature", "geometry": {"type": "Point", "coordinates": [-73.2278948, -39.8236127]}, "properties": {"stop_name": "Av. Ramón Picarte / Barros Arana", "tipo": "paradero"}}, {"type": "Feature", "geometry": {"type": "Point", "coordinates": [-73.2309717, -39.8188939]}, "properties": {"stop_name": "Av. Ramon Picarte / Av. Ramon Picarte", "tipo": "paradero"}}, {"type": "Feature", "geometry": {"type": "Point", "coordinates": [-73.2324895, -39.8180031]}, "properties": {"stop_name": "Av. Picarte / Condell", "tipo": "paradero"}}, {"type": "Feature", "geometry": {"type": "Point", "coordinates": [-73.2342061, -39.8170163]}, "properties": {"stop_name": "Av. Ramon Picarte / Beauchef", "tipo": "paradero"}}, {"type": "Feature", "geometry": {"type": "Point", "coordinates": [-73.2359837, -39.8157701]}, "properties": {"stop_name": "Carlos Anwandter  / Anfión Muñoz", "tipo": "paradero"}}, {"type": "Feature", "geometry": {"type": "Point", "coordinates": [-73.2393506, -39.8130874]}, "properties": {"stop_name": "Av. Alemania / García Reyes", "tipo": "paradero"}}, {"type": "Feature", "geometry": {"type": "Point", "coordinates": [-73.2433283, -39.8121582]}, "properties": {"stop_name": "Carampangue / Caupolicán", "tipo": "paradero"}}, {"type": "Feature", "geometry": {"type": "Point", "coordinates": [-73.2451093, -39.8119275]}, "properties": {"stop_name": "Carampangue / Camilo Henríquez", "tipo": "paradero"}}, {"type": "Feature", "geometry": {"type": "Point", "coordinates": [-73.2514442, -39.806872]}, "properties": {"stop_name": "Los Laureles / Campus Isla Teja", "tipo": "paradero"}}, {"type": "Feature", "geometry": {"type": "Point", "coordinates": [-73.2517038, -39.8068599]}, "properties": {"stop_name": "Los Laureles / Campus Isla Teja", "tipo": "paradero"}}, {"type": "Feature", "geometry": {"type": "Point", "coordinates": [-73.2518123, -39.8068978]}, "properties": {"stop_name": "Los Laureles / Av. Presidente Carlos Ibañez del Campo", "tipo": "terminal"}}]}