{"type": "FeatureCollection", "features": [{"type": "Feature", "geometry": {"type": "LineString", "coordinates": [[-73.2202261, -39.7717145], [-73.2168619, -39.7736772], [-73.2020144, -39.7748832], [-73.1949258, -39.7743756], [-73.1934231, -39.7749715], [-73.1929993, -39.7791479], [-73.2118552, -39.7906903], [-73.213942, -39.7967575], [-73.2135206, -39.8033376], [-73.2157091, -39.8071519], [-73.2169935, -39.8085599], [-73.2229328, -39.813893], [-73.2258088, -39.8159907], [-73.2309717, -39.8188939], [-73.2324895, -39.8180031], [-73.2342061, -39.8170163], [-73.2370249, -39.8156853], [-73.2399916, -39.814816], [-73.2419741, -39.8134502], [-73.2449971, -39.8130462], [-73.2468688, -39.8134892], [-73.2481026, -39.8152816], [-73.2488563, -39.8176845], [-73.24658, -39.8193156], [-73.2391387, -39.8304886], [-73.2379692, -39.8317698], [-73.2388651, -39.8357285], [-73.2370412, -39.8366841], [-73.2332807, -39.8378046], [-73.2314086, -39.838027], [-73.2297182, -39.8389321], [-73.2296597, -39.8395181], [-73.2289409, -39.8416682], [-73.2285644, -39.843844], [-73.2313764, -39.8446873], [-73.2316902, -39.8495163], [-73.2323048, -39.8513328]]}, "properties": {"route_id": "298", "tipo": "troncal"}}, {"type": "Feature", "geometry": {"type": "Point", "coordinates": [-73.2202261, -39.7717145]}, "properties": {"stop_name": "Camino El Arenal / Pasaje Rumualdo Toledo", "tipo": "terminal"}}, {"type": "Feature", "geometry": {"type": "Point", "coordinates": [-73.2168619, -39.7736772]}, "properties": {"stop_name": "Camino El Arenal / P1", "tipo": "paradero"}}, {"type": "Feature", "geometry": {"type": "Point", "coordinates": [-73.2020144, -39.7748832]}, "properties": {"stop_name": "Camino El Arenal / P3", "tipo": "paradero"}}, {"type": "Feature", "geometry": {"type": "Point", "coordinates": [-73.1949258, -39.7743756]}, "properties": {"stop_name": "Camino El Arenal / P5", "tipo": "paradero"}}, {"type": "Feature", "geometry": {"type": "Point", "coordinates": [-73.1934231, -39.7749715]}, "properties": {"stop_name": "Camino El Arenal / P7", "tipo": "paradero"}}, {"type": "Feature", "geometry": {"type": "Point", "coordinates": [-73.1929993, -39.7791479]}, "properties": {"stop_name": "Ruta T-312 / Ruta T-302", "tipo": "paradero"}}, {"type": "Feature", "geometry": {"type": "Point", "coordinates": [-73.2118552, -39.7906903]}, "properties": {"stop_name": "Pedro Aguirre Cerda/Los Maitenes", "tipo": "paradero"}}, {"type": "Feature", "geometry": {"type": "Point", "coordinates": [-73.213942, -39.7967575]}, "properties": {"stop_name": "Pedro Aguirre Cerda / Eckhart", "tipo": "paradero"}}, {"type": "Feature", "geometry": {"type": "Point", "coordinates": [-73.2135206, -39.8033376]}, "properties": {"stop_name": "Pedro Aguirre Cerda / Dalias", "tipo": "paradero"}}, {"type": "Feature", "geometry": {"type": "Point", "coordinates": [-73.2157091, -39.8071519]}, "properties": {"stop_name": "Pedro Aguirre Cerda / Bombero Muñoz", "tipo": "paradero"}}, {"type": "Feature", "geometry": {"type": "Point", "coordinates": [-73.2169935, -39.8085599]}, "properties": {"stop_name": "Pedro Aguirre Cerda / Pje. Doce", "tipo": "paradero"}}, {"type": "Feature", "geometry": {"type": "Point", "coordinates": [-73.2229328, -39.813893]}, "properties": {"stop_name": "Pedro Aguirre Cerda / Ricardo Rodas", "tipo": "paradero"}}, {"type": "Feature", "geometry": {"type": "Point", "coordinates": [-73.2258088, -39.8159907]}, "properties": {"stop_name": "Pedro Aguirre Cerda/Av España", "tipo": "paradero"}}, {"type": "Feature", "geometry": {"type": "Point", "coordinates": [-73.2309717, -39.8188939]}, "properties": {"stop_name": "Av. Ramon Picarte / Av. Ramon Picarte", "tipo": "paradero"}}, {"type": "Feature", "geometry": {"type": "Point", "coordinates": [-73.2324895, -39.8180031]}, "properties": {"stop_name": "Av. Picarte / Condell", "tipo": "paradero"}}, {"type": "Feature", "geometry": {"type": "Point", "coordinates": [-73.2342061, -39.8170163]}, "properties": {"stop_name": "Av. Ramon Picarte / Beauchef", "tipo": "paradero"}}, {"type": "Feature", "geometry": {"type": "Point", "coordinates": [-73.2370249, -39.8156853]}, "properties": {"stop_name": "Av. Ramon Picarte / Pedro de Valdivia", "tipo": "paradero"}}, {"type": "Feature", "geometry": {"type": "Point", "coordinates": [-73.2399916, -39.814816]}, "properties": {"stop_name": "Av. Ramón Picarte / García Reyes", "tipo": "paradero"}}, {"type": "Feature", "geometry": {"type": "Point", "coordinates": [-73.2419741, -39.8134502]}, "properties": {"stop_name": "Chacabuco / Walter Schmidt", "tipo": "paradero"}}, {"type": "Feature", "geometry": {"type": "Point", "coordinates": [-73.2449971, -39.8130462]}, "properties": {"stop_name": "Chacabuco / Camilo Henríquez", "tipo": "paradero"}}, {"type": "Feature", "geometry": {"type": "Point", "coordinates": [-73.2468688, -39.8134892]}, "properties": {"stop_name": "Independencia / Chacabuco", "tipo": "paradero"}}, {"type": "Feature", "geometry": {"type": "Point", "coordinates": [-73.2481026, -39.8152816]}, "properties": {"stop_name": "Yungay / San Carlos", "tipo": "paradero"}}, {"type": "Feature", "geometry": {"type": "Point", "coordinates": [-73.2488563, -39.8176845]}, "properties": {"stop_name": "General Lagos / Yerbas Buenas", "tipo": "paradero"}}, {"type": "Feature", "geometry": {"type": "Point", "coordinates": [-73.24658, -39.8193156]}, "properties": {"stop_name": "Lord Cochrane / Serrano", "tipo": "paradero"}}, {"type": "Feature", "geometry": {"type": "Point", "coordinates": [-73.2391387, -39.8304886]}, "properties": {"stop_name": "Haverbeck / Bueras Sur", "tipo": "paradero"}}, {"type": "Feature", "geometry": {"type": "Point", "coordinates": [-73.2379692, -39.8317698]}, "properties": {"stop_name": "Av. Simpson / Tornagaleones", "tipo": "paradero"}}, {"type": "Feature", "geometry": {"type": "Point", "coordinates": [-73.2388651, -39.8357285]}, "properties": {"stop_name": "Berna", "tipo": "paradero"}}, {"type": "Feature", "geometry": {"type": "Point", "coordinates": [-73.2370412, -39.8366841]}, "properties": {"stop_name": "Av. Francia / Austria", "tipo": "paradero"}}, {"type": "Feature", "geometry": {"type": "Point", "coordinates": [-73.2332807, -39.8378046]}, "properties": {"stop_name": "Av. Francia / Isla Mocha", "tipo": "paradero"}}, {"type": "Feature", "geometry": {"type": "Point", "coordinates": [-73.2314086, -39.838027]}, "properties": {"stop_name": "Av. Francia / Gral. A Montecino Caro", "tipo": "paradero"}}, {"type": "Feature", "geometry": {"type": "Point", "coordinates": [-73.2297182, -39.8389321]}, "properties": {"stop_name": "General A. Montecino Caro / Luis Tirado", "tipo": "paradero"}}, {"type": "Feature", "geometry": {"type": "Point", "coordinates": [-73.2296597, -39.8395181]}, "properties": {"stop_name": "General A. Montecino Caro / Pje. 1A", "tipo": "paradero"}}, {"type": "Feature", "geometry": {"type": "Point", "coordinates": [-73.2289409, -39.8416682]}, "properties": {"stop_name": "General A. Montecino Caro / Pje. 1-e", "tipo": "paradero"}}, {"type": "Feature", "geometry": {"type": "Point", "coordinates": [-73.2285644, -39.843844]}, "properties": {"stop_name": "Claudio Barrientos / Gral. Montecinos", "tipo": "paradero"}}, {"type": "Feature", "geometry": {"type": "Point", "coordinates": [-73.2313764, -39.8446873]}, "properties": {"stop_name": "Av. Circunvalación Sur / Hualaihue", "tipo": "paradero"}}, {"type": "Feature", "geometry": {"type": "Point", "coordinates": [-73.2316902, -39.8495163]}, "properties": {"stop_name": "Av. Pedro Montt / Orozimbo Barbozo", "tipo": "paradero"}}, {"type": "Feature", "geometry": {"type": "Point", "coordinates": [-73.2323048, -39.8513328]}, "properties": {"stop_name": "Av. Pedro Montt / Intendente Luis Damann Asenjo", "tipo": "terminal"}}]}